{"name":"Canada","cables":[{"id":"crosslake-fibre","name":"Crosslake Fibre","cable_id":1925},{"id":"greenland-connect","name":"Greenland Connect","cable_id":1569},{"id":"persona","name":"Persona","cable_id":1577},{"id":"gtt-atlantic","name":"GTT Atlantic","cable_id":1080},{"id":"gtt-express","name":"GTT Express","cable_id":1673}],"landing_points":[{"id":"toronto-on-canada","name":"Toronto, ON, Canada","landing_point_id":3033},{"id":"milton-newfoundland-and-labrador-canada","name":"Milton, Newfoundland and Labrador, Canada","landing_point_id":8542},{"id":"new-victoria-ns-canada","name":"New Victoria, NS, Canada","landing_point_id":9374},{"id":"rose-blanche-nl-canada","name":"Rose Blanche, NL, Canada","landing_point_id":9375},{"id":"halifax-nova-scotia-canada","name":"Halifax, Nova Scotia, Canada","landing_point_id":3640}],"latlon":[{"latlon":"43.648561,-79.385319"},{"latlon":"48.207616,-53.960234"},{"latlon":"46.252905,-60.129567"},{"latlon":"47.617687,-58.686599"},{"latlon":"44.645801,-63.573950"}]}
