{"name":"Egypt","cables":[{"id":"africa-1","name":"Africa-1","cable_id":1878},{"id":"taba-aqaba","name":"Taba-Aqaba","cable_id":1806},{"id":"flag-europe-asia-fea","name":"FLAG Europe-Asia (FEA)","cable_id":1027},{"id":"seamewe-3","name":"SeaMeWe-3","cable_id":1031},{"id":"aletar","name":"Aletar","cable_id":1319},{"id":"seamewe-4","name":"SeaMeWe-4","cable_id":1035},{"id":"falcon","name":"FALCON","cable_id":1346},{"id":"imewe","name":"IMEWE","cable_id":1536},{"id":"hawk","name":"Hawk","cable_id":1523},{"id":"seamewe-5","name":"SeaMeWe-5","cable_id":1559},{"id":"asia-africa-europe-1-aae-1","name":"Asia Africa Europe-1 (AAE-1)","cable_id":1739},{"id":"seacomtata-tgn-eurasia","name":"SEACOM/Tata TGN-Eurasia","cable_id":1552},{"id":"middle-east-north-africa-mena-cable-systemgulf-bridge-international","name":"Middle East North Africa (MENA) Cable System/Gulf Bridge International","cable_id":1558},{"id":"te-northtgn-eurasiaseacomalexandros","name":"TE North/TGN-Eurasia/SEACOM/Alexandros","cable_id":1573},{"id":"europe-india-gateway-eig","name":"Europe India Gateway (EIG)","cable_id":1580}],"landing_points":[{"id":"zafarana-egypt","name":"Zafarana, Egypt","landing_point_id":9486},{"id":"taba-egypt","name":"Taba, Egypt","landing_point_id":10498},{"id":"alexandria-egypt","name":"Alexandria, Egypt","landing_point_id":6044},{"id":"suez-egypt","name":"Suez, Egypt","landing_point_id":5825},{"id":"abu-talat-egypt","name":"Abu Talat, Egypt","landing_point_id":9485}],"latlon":[{"latlon":"29.116658,32.649893"},{"latlon":"29.492574,34.894863"},{"latlon":"31.191889,29.889787"},{"latlon":"29.972285,32.530118"},{"latlon":"29.116683,32.649844"},{"latlon":"31.071845,29.702482"}]}
