{"name":"French Polynesia","cables":[{"id":"honotua","name":"Honotua","cable_id":1556}],"landing_points":[{"id":"huahine-french-polynesia","name":"Huahine, French Polynesia","landing_point_id":14804},{"id":"moorea-french-polynesia","name":"Moorea, French Polynesia","landing_point_id":14798},{"id":"uturoa-french-polynesia","name":"Uturoa, French Polynesia","landing_point_id":14799},{"id":"vaitape-french-polynesia","name":"Vaitape, French Polynesia","landing_point_id":14800},{"id":"papenoo-french-polynesia","name":"Papenoo, French Polynesia","landing_point_id":8974}],"latlon":[{"latlon":"-16.730061,-151.000068"},{"latlon":"-17.538776,-149.829561"},{"latlon":"-16.730915,-151.443037"},{"latlon":"-16.506330,-151.749531"},{"latlon":"-17.512336,-149.441084"}]}
