{"name":"Guadeloupe","cables":[{"id":"southern-caribbean-fiber","name":"Southern Caribbean Fiber","cable_id":1619},{"id":"eastern-caribbean-fiber-system-ecfs","name":"Eastern Caribbean Fiber System (ECFS)","cable_id":1290},{"id":"global-caribbean-network-gcn","name":"Global Caribbean Network (GCN)","cable_id":1829}],"landing_points":[{"id":"baie-mahault-guadeloupe","name":"Baie-Mahault, Guadeloupe","landing_point_id":16975},{"id":"pointe-a-pitre-guadeloupe","name":"Pointe-a-Pitre, Guadeloupe","landing_point_id":4906},{"id":"jarry-guadeloupe","name":"Jarry, Guadeloupe","landing_point_id":8836},{"id":"baillif-guadeloupe","name":"Baillif, Guadeloupe","landing_point_id":8834},{"id":"saint-martin-guadeloupe","name":"Saint Martin, Guadeloupe","landing_point_id":7875},{"id":"saint-barthelemy-guadeloupe","name":"Saint Barthelemy, Guadeloupe","landing_point_id":7876}],"latlon":[{"latlon":"16.244472,-61.571717"},{"latlon":"16.241042,-61.533082"},{"latlon":"16.243007,-61.554859"},{"latlon":"16.028945,-61.713941"},{"latlon":"18.092787,-63.050073"},{"latlon":"17.900062,-62.833374"}]}
