{"name":"Italy","cables":[{"id":"italy-greece-1","name":"Italy-Greece 1","cable_id":1299},{"id":"italy-croatia","name":"Italy-Croatia","cable_id":1286},{"id":"janna","name":"Janna","cable_id":1729},{"id":"flag-europe-asia-fea","name":"FLAG Europe-Asia (FEA)","cable_id":1027},{"id":"didon","name":"Didon","cable_id":1772},{"id":"seamewe-3","name":"SeaMeWe-3","cable_id":1031},{"id":"columbus-iii","name":"Columbus-III","cable_id":1046},{"id":"italy-monaco","name":"Italy-Monaco","cable_id":1302},{"id":"barsav","name":"BARSAV","cable_id":1053},{"id":"lev-submarine-system","name":"Lev Submarine System","cable_id":1065},{"id":"seamewe-5","name":"SeaMeWe-5","cable_id":1559},{"id":"mednautilus-submarine-system","name":"MedNautilus Submarine System","cable_id":1185},{"id":"italy-libya","name":"Italy-Libya","cable_id":1287},{"id":"italy-malta","name":"Italy-Malta","cable_id":1301},{"id":"vodafone-malta-sicily-cable-system-vmscs","name":"Vodafone Malta-Sicily Cable System (VMSCS)","cable_id":1249},{"id":"seamewe-4","name":"SeaMeWe-4","cable_id":1035},{"id":"asia-africa-europe-1-aae-1","name":"Asia Africa Europe-1 (AAE-1)","cable_id":1739},{"id":"italy-albania","name":"Italy-Albania","cable_id":1296},{"id":"greece-western-europe-network-gwen","name":"Greece-Western Europe Network (GWEN)","cable_id":1383},{"id":"trapani-kelibia","name":"Trapani-Kelibia ","cable_id":1555},{"id":"imewe","name":"IMEWE","cable_id":1536},{"id":"middle-east-north-africa-mena-cable-systemgulf-bridge-international","name":"Middle East North Africa (MENA) Cable System/Gulf Bridge International","cable_id":1558},{"id":"go-1-mediterranean-cable-system","name":"GO-1 Mediterranean Cable System","cable_id":1581},{"id":"melita-1","name":"Melita 1","cable_id":1602},{"id":"hannibal-system","name":"HANNIBAL System","cable_id":1621},{"id":"jonah","name":"Jonah","cable_id":1677}],"landing_points":[{"id":"otranto-italy","name":"Otranto, Italy","landing_point_id":6027},{"id":"mestre-italy","name":"Mestre, Italy","landing_point_id":6016},{"id":"cagliari-italy","name":"Cagliari, Italy","landing_point_id":3162},{"id":"civitavecchia-italy","name":"Civitavecchia, Italy","landing_point_id":7751},{"id":"olbia-italy","name":"Olbia, Italy","landing_point_id":8592},{"id":"palermo-italy","name":"Palermo, Italy","landing_point_id":3177},{"id":"mazara-del-vallo-italy","name":"Mazara del Vallo, Italy","landing_point_id":3215},{"id":"savona-italy","name":"Savona, Italy","landing_point_id":5880},{"id":"catania-italy","name":"Catania, Italy","landing_point_id":3214},{"id":"bari-italy","name":"Bari, Italy","landing_point_id":3160},{"id":"trapani-italy","name":"Trapani, Italy","landing_point_id":5876},{"id":"pozzallo-italy","name":"Pozzallo, Italy","landing_point_id":8972}],"latlon":[{"latlon":"40.148050,18.485703"},{"latlon":"45.495874,12.244105"},{"latlon":"39.215311,9.109340"},{"latlon":"42.091127,11.796839"},{"latlon":"40.922512,9.486879"},{"latlon":"38.121500,13.358362"},{"latlon":"37.650126,12.591272"},{"latlon":"44.305543,8.483755"},{"latlon":"37.511588,15.067443"},{"latlon":"41.125490,16.866661"},{"latlon":"38.017948,12.513636"},{"latlon":"36.733720,14.853869"}]}
