{"name":"Malaysia","cables":[{"id":"labuan-brunei-submarine-cable","name":"Labuan-Brunei Submarine Cable","cable_id":1891},{"id":"jasuka","name":"JASUKA","cable_id":1844},{"id":"sistem-kabel-rakyat-1malaysia-skr1m","name":"Sistem Kabel Rakyat 1Malaysia (SKR1M)","cable_id":1828},{"id":"east-west-submarine-cable-system","name":"East-West Submarine Cable System","cable_id":1886},{"id":"malaysia-cambodia-thailand-mct-cable","name":"Malaysia-Cambodia-Thailand (MCT) Cable","cable_id":1776},{"id":"asia-africa-europe-1-aae-1","name":"Asia Africa Europe-1 (AAE-1)","cable_id":1739},{"id":"bay-of-bengal-gateway-bbg","name":"Bay of Bengal Gateway (BBG)","cable_id":1735},{"id":"flag-europe-asia-fea","name":"FLAG Europe-Asia (FEA)","cable_id":1027},{"id":"sea-cable-exchange-1-seax-1","name":"SEA Cable Exchange-1 (SEAX-1)","cable_id":1887},{"id":"asia-submarine-cable-express-asecahaya-malaysia","name":"Asia Submarine-cable Express (ASE)/Cahaya Malaysia","cable_id":1679},{"id":"seamewe-3","name":"SeaMeWe-3","cable_id":1031},{"id":"asia-pacific-gateway-apg","name":"Asia Pacific Gateway (APG)","cable_id":1617},{"id":"apcn-2","name":"APCN-2","cable_id":1049},{"id":"safe","name":"SAFE","cable_id":1220},{"id":"seamewe-5","name":"SeaMeWe-5","cable_id":1559},{"id":"seamewe-4","name":"SeaMeWe-4","cable_id":1035},{"id":"dumai-melaka-cable-system","name":"Dumai-Melaka Cable System","cable_id":1350},{"id":"asia-america-gateway-aag-cable-system","name":"Asia-America Gateway (AAG) Cable System","cable_id":1507},{"id":"batam-rengit-cable-system-brcs","name":"Batam-Rengit Cable System (BRCS)","cable_id":1601},{"id":"batam-dumai-melaka-bdm-cable-system","name":"Batam Dumai Melaka (BDM) Cable System ","cable_id":1648}],"landing_points":[{"id":"kiamsam-malaysia","name":"Kiamsam, Malaysia","landing_point_id":16695},{"id":"bandar-bukit-tinggi-malaysia","name":"Bandar Bukit Tinggi, Malaysia","landing_point_id":14269},{"id":"kota-kinabalu-malaysia","name":"Kota Kinabalu, Malaysia","landing_point_id":6009},{"id":"miri-malaysia","name":"Miri, Malaysia","landing_point_id":7809},{"id":"bintulu-malaysia","name":"Bintulu, Malaysia","landing_point_id":7811},{"id":"kuching-malaysia","name":"Kuching, Malaysia","landing_point_id":7808},{"id":"cherating-malaysia","name":"Cherating, Malaysia","landing_point_id":6011},{"id":"kuala-kurau-malaysia","name":"Kuala Kurau, Malaysia","landing_point_id":15018},{"id":"penang-malaysia","name":"Penang, Malaysia","landing_point_id":3307},{"id":"mersing-malaysia","name":"Mersing, Malaysia","landing_point_id":5902},{"id":"kuantan-malaysia","name":"Kuantan, Malaysia","landing_point_id":5903},{"id":"melaka-malaysia","name":"Melaka, Malaysia","landing_point_id":6300},{"id":"rengit-malaysia","name":"Rengit, Malaysia","landing_point_id":8970}],"latlon":[{"latlon":"5.255329,115.168946"},{"latlon":"3.009286,101.436726"},{"latlon":"5.981330,116.074316"},{"latlon":"4.425300,114.007423"},{"latlon":"3.197005,113.068361"},{"latlon":"1.520175,110.353714"},{"latlon":"4.130232,103.393658"},{"latlon":"5.019465,100.397078"},{"latlon":"5.353645,100.362996"},{"latlon":"2.295516,103.849908"},{"latlon":"3.815169,103.322565"},{"latlon":"2.273177,102.220905"},{"latlon":"1.677133,103.147662"}]}
