{"name":"Maldives","cables":[{"id":"nationwide-submarine-cable-ooredoo-maldives-nascom","name":"Nationwide Submarine Cable Ooredoo Maldives (NaSCOM)","cable_id":1868},{"id":"dhiraagu-cable-network","name":"Dhiraagu Cable Network","cable_id":1746},{"id":"warf-submarine-cable","name":"WARF Submarine Cable","cable_id":1517},{"id":"dhiraagu-slt-submarine-cable-network","name":"Dhiraagu-SLT Submarine Cable Network","cable_id":1369}],"landing_points":[{"id":"thinadhoo-maldives","name":"Thinadhoo, Maldives","landing_point_id":16505},{"id":"kolhufushi-maldives","name":"Kolhufushi, Maldives","landing_point_id":16506},{"id":"hulhumale-maldives","name":"Hulhumale, Maldives","landing_point_id":9215},{"id":"kulhudhufushi-maldives","name":"Kulhudhufushi, Maldives","landing_point_id":10811},{"id":"eydhafushi-maldives","name":"Eydhafushi, Maldives","landing_point_id":10812},{"id":"dhangethi-maldives","name":"Dhangethi, Maldives","landing_point_id":10813},{"id":"gan-maldives","name":"Gan, Maldives","landing_point_id":10814},{"id":"gahdhoo-maldives","name":"Gahdhoo, Maldives","landing_point_id":10815},{"id":"hithadhoo-maldives","name":"Hithadhoo, Maldives","landing_point_id":10816},{"id":"fuvahmulah-maldives","name":"Fuvahmulah, Maldives","landing_point_id":10817},{"id":"male-maldives","name":"Male, Maldives","landing_point_id":4251}],"latlon":[{"latlon":"0.531088,72.997677"},{"latlon":"2.776766,73.424630"},{"latlon":"4.211946,73.540157"},{"latlon":"6.622443,73.071407"},{"latlon":"5.103230,73.070821"},{"latlon":"3.608089,72.955587"},{"latlon":"1.918417,73.544649"},{"latlon":"0.288803,73.455489"},{"latlon":"-0.606020,73.089181"},{"latlon":"-0.298306,73.426876"},{"latlon":"4.166267,73.499923"}]}
