{"name":"Mexico","cables":[{"id":"aurora","name":"AURORA","cable_id":1924},{"id":"pan-american-crossing-pac","name":"Pan-American Crossing (PAC)","cable_id":1072},{"id":"arcos","name":"ARCOS ","cable_id":1078},{"id":"america-movil-submarine-cable-system-1-amx-1","name":"America Movil Submarine Cable System-1 (AMX-1)","cable_id":1686},{"id":"maya-1","name":"Maya-1","cable_id":1071}],"landing_points":[{"id":"cancn-mexico","name":"Cancún, Mexico","landing_point_id":3842},{"id":"tijuana-mexico","name":"Tijuana, Mexico","landing_point_id":3484},{"id":"mazatln-mexico","name":"Mazatlán, Mexico","landing_point_id":3470},{"id":"tulum-mexico","name":"Tulum, Mexico","landing_point_id":5908}],"latlon":[{"latlon":"21.095666,-86.767567"},{"latlon":"32.530853,-117.038219"},{"latlon":"23.199535,-106.421867"},{"latlon":"20.212549,-87.463599"},{"latlon":"21.095727,-86.767555"}]}
