{"name":"Trinidad and Tobago","cables":[{"id":"deep-blue-cable","name":"Deep Blue Cable","cable_id":1913},{"id":"tt-1","name":"TT-1","cable_id":1799},{"id":"americas-ii","name":"Americas-II","cable_id":1148},{"id":"eastern-caribbean-fiber-system-ecfs","name":"Eastern Caribbean Fiber System (ECFS)","cable_id":1290},{"id":"eclink","name":"ECLink","cable_id":1532},{"id":"suriname-guyana-submarine-cable-system-sg-scs","name":"Suriname-Guyana Submarine Cable System (SG-SCS)","cable_id":1612},{"id":"southern-caribbean-fiber","name":"Southern Caribbean Fiber","cable_id":1619}],"landing_points":[{"id":"manzanilla-trinidad-and-tobago","name":"Manzanilla, Trinidad and Tobago","landing_point_id":17006},{"id":"rockly-bay-trinidad-and-tobago","name":"Rockly Bay, Trinidad and Tobago","landing_point_id":17007},{"id":"chaguaramas-trinidad-and-tobago","name":"Chaguaramas, Trinidad and Tobago","landing_point_id":8838},{"id":"toco-trinidad-and-tobago","name":"Toco, Trinidad and Tobago","landing_point_id":14806},{"id":"pigeon-point-trinidad-and-tobago","name":"Pigeon Point, Trinidad and Tobago","landing_point_id":14807},{"id":"port-of-spain-trinidad-and-tobago","name":"Port of Spain, Trinidad and Tobago","landing_point_id":4236}],"latlon":[{"latlon":"10.506572,-61.038148"},{"latlon":"11.182451,-60.735341"},{"latlon":"10.686137,-61.650806"},{"latlon":"10.831132,-60.949684"},{"latlon":"11.165410,-60.840309"},{"latlon":"10.649785,-61.516676"},{"latlon":"10.686162,-61.650806"}]}
