{"id":"apcn-2","name":"APCN-2","cable_id":1049,"landing_points":[{"landing_point_id":3218,"id":"batangas-philippines","name":"Batangas, Philippines","latlon":"13.765555,121.064939","url":"#/landing-point/batangas-philippines"},{"landing_point_id":5885,"id":"chikura-japan","name":"Chikura, Japan","latlon":"34.976653,139.954652","url":"#/landing-point/chikura-japan"},{"landing_point_id":5802,"id":"chongming-china","name":"Chongming, China","latlon":"31.619880,121.395212","url":"#/landing-point/chongming-china"},{"landing_point_id":5939,"id":"katong-singapore","name":"Katong, Singapore","latlon":"1.309286,103.904693","url":"#/landing-point/katong-singapore"},{"landing_point_id":5703,"id":"kitaibaraki-japan","name":"Kitaibaraki, Japan","latlon":"36.801787,140.750940","url":"#/landing-point/kitaibaraki-japan"},{"landing_point_id":5903,"id":"kuantan-malaysia","name":"Kuantan, Malaysia","latlon":"3.815169,103.322565","url":"#/landing-point/kuantan-malaysia"},{"landing_point_id":5852,"id":"lantau-island-hong-kong-china","name":"Lantau Island, Hong Kong, China","latlon":"22.271496,113.948341","url":"#/landing-point/lantau-island-hong-kong-china"},{"landing_point_id":4183,"id":"pusan-korea-rep-","name":"Pusan, Korea, Rep.","latlon":"35.170147,128.999310","url":"#/landing-point/pusan-korea-rep-"},{"landing_point_id":5803,"id":"shantou-china","name":"Shantou, China","latlon":"23.354552,116.675488","url":"#/landing-point/shantou-china"},{"landing_point_id":5982,"id":"tanshui-taiwan","name":"Tanshui, Taiwan","latlon":"25.181357,121.462595","url":"#/landing-point/tanshui-taiwan"}],"length":"19,000 km","rfs":"December 2001","owners":"SingTel,  Verizon,  KDDI,  Chunghwa Telecom,  AT&T,  BT,  Orange,  Softbank Telecom,  NTT,  Tata Communications,  Telekom Malaysia,  Starhub,  PLDT,  China Unicom,  KT,  SingTel Optus,  Telstra,  PCCW,  China Telecom,  LG Uplus,  HKBN Enterprise Solutions,  Vodafone","url":"http://www.apcn2na.com","notes":null}
