{"id":"arcos","name":"ARCOS","cable_id":1078,"landing_points":[{"landing_point_id":5791,"id":"belize-city-belize","name":"Belize City, Belize","latlon":"17.495546,-88.181617","url":"#/landing-point/belize-city-belize"},{"landing_point_id":5920,"id":"bluefields-nicaragua","name":"Bluefields, Nicaragua","latlon":"11.991776,-83.771462","url":"#/landing-point/bluefields-nicaragua"},{"landing_point_id":3842,"id":"cancn-mexico","name":"Cancún, Mexico","latlon":"21.095727,-86.767555","url":"#/landing-point/cancn-mexico"},{"landing_point_id":5693,"id":"cartagena-colombia","name":"Cartagena, Colombia","latlon":"10.386699,-75.505683","url":"#/landing-point/cartagena-colombia"},{"landing_point_id":5784,"id":"cat-island-bahamas","name":"Cat Island, Bahamas","latlon":"24.403330,-75.525898","url":"#/landing-point/cat-island-bahamas"},{"landing_point_id":5782,"id":"crooked-island-bahamas","name":"Crooked Island, Bahamas","latlon":"22.629711,-74.194990","url":"#/landing-point/crooked-island-bahamas"},{"landing_point_id":5773,"id":"isla-verde-puerto-rico-united-states","name":"Isla Verde, Puerto Rico, United States","latlon":"18.441651,-66.016869","url":"#/landing-point/isla-verde-puerto-rico-united-states"},{"landing_point_id":5928,"id":"maria-chiquita-panama","name":"Maria Chiquita, Panama","latlon":"9.437334,-79.753544","url":"#/landing-point/maria-chiquita-panama"},{"landing_point_id":4230,"id":"nassau-bahamas","name":"Nassau, Bahamas","latlon":"25.067039,-77.340252","url":"#/landing-point/nassau-bahamas"},{"landing_point_id":5772,"id":"north-miami-beach-florida-united-states","name":"North Miami Beach, Florida, United States","latlon":"25.932944,-80.162382","url":"#/landing-point/north-miami-beach-florida-united-states"},{"landing_point_id":4258,"id":"providenciales-turks-and-caicos-islands","name":"Providenciales, Turks and Caicos Islands","latlon":"21.851098,-72.120235","url":"#/landing-point/providenciales-turks-and-caicos-islands"},{"landing_point_id":5848,"id":"puerto-barrios-guatemala","name":"Puerto Barrios, Guatemala","latlon":"15.727138,-88.597241","url":"#/landing-point/puerto-barrios-guatemala"},{"landing_point_id":5921,"id":"puerto-cabezas-nicaragua","name":"Puerto Cabezas, Nicaragua","latlon":"14.021609,-83.393924","url":"#/landing-point/puerto-cabezas-nicaragua"},{"landing_point_id":5851,"id":"puerto-cortes-honduras","name":"Puerto Cortes, Honduras","latlon":"15.844802,-87.946070","url":"#/landing-point/puerto-cortes-honduras"},{"landing_point_id":5692,"id":"puerto-lempira-honduras","name":"Puerto Lempira, Honduras","latlon":"15.261221,-83.776760","url":"#/landing-point/puerto-lempira-honduras"},{"landing_point_id":5810,"id":"puerto-limon-costa-rica","name":"Puerto Limon, Costa Rica","latlon":"9.988603,-83.037674","url":"#/landing-point/puerto-limon-costa-rica"},{"landing_point_id":5823,"id":"puerto-plata-dominican-republic","name":"Puerto Plata, Dominican Republic","latlon":"19.799341,-70.691232","url":"#/landing-point/puerto-plata-dominican-republic"},{"landing_point_id":5694,"id":"punta-cana-dominican-republic","name":"Punta Cana, Dominican Republic","latlon":"18.621278,-68.438254","url":"#/landing-point/punta-cana-dominican-republic"},{"landing_point_id":5965,"id":"punto-fijo-venezuela","name":"Punto Fijo, Venezuela","latlon":"11.708598,-70.204367","url":"#/landing-point/punto-fijo-venezuela"},{"landing_point_id":5807,"id":"riohacha-colombia","name":"Riohacha, Colombia","latlon":"11.482914,-72.952705","url":"#/landing-point/riohacha-colombia"},{"landing_point_id":5850,"id":"trujillo-honduras","name":"Trujillo, Honduras","latlon":"15.915151,-85.954762","url":"#/landing-point/trujillo-honduras"},{"landing_point_id":5908,"id":"tulum-mexico","name":"Tulum, Mexico","latlon":"20.212549,-87.463599","url":"#/landing-point/tulum-mexico"},{"landing_point_id":4275,"id":"willemstad-curaao","name":"Willemstad, Curaçao","latlon":"12.095316,-68.896604","url":"#/landing-point/willemstad-curaao"}],"length":"8,600 km","rfs":"December 2001","owners":"C&W Networks,  CANTV,  Codetel,  Hondutel,  Belize Telemedia,  Enitel,  AT&T,  Alestra,  Verizon,  RACSA,  United Telecommunication Services (UTS),  Telecarrier,  Tricom USA,  Telecomunicaciones Ultramarinas de Puerto Rico,  Internexa,  Orbinet Overseas,  Telepuerto San Isidro,  Bahamas Telecommunications Company,  Instituto Costarricense de Electricidad,  Orbitel","url":"http://www.cwnetworks.com/","notes":null}
