{"id":"asia-africa-europe-1-aae-1","name":"Asia Africa Europe-1 (AAE-1)","cable_id":1739,"landing_points":[{"landing_point_id":9485,"id":"abu-talat-egypt","name":"Abu Talat, Egypt","latlon":"31.071845,29.702482","url":"#/landing-point/abu-talat-egypt"},{"landing_point_id":5969,"id":"aden-yemen","name":"Aden, Yemen","latlon":"12.800687,45.033530","url":"#/landing-point/aden-yemen"},{"landing_point_id":15019,"id":"al-bustan-oman","name":"Al Bustan, Oman","latlon":"23.576085,58.606082","url":"#/landing-point/al-bustan-oman"},{"landing_point_id":3160,"id":"bari-italy","name":"Bari, Italy","latlon":"41.125490,16.866661","url":"#/landing-point/bari-italy"},{"landing_point_id":6007,"id":"cape-daguilar-hong-kong-china","name":"Cape D'Aguilar, Hong Kong, China","latlon":"22.208031,114.260255","url":"#/landing-point/cape-daguilar-hong-kong-china"},{"landing_point_id":5723,"id":"chania-greece","name":"Chania, Greece","latlon":"35.511809,24.012165","url":"#/landing-point/chania-greece"},{"landing_point_id":4177,"id":"djibouti-city-djibouti","name":"Djibouti City, Djibouti","latlon":"11.594682,43.147984","url":"#/landing-point/djibouti-city-djibouti"},{"landing_point_id":3867,"id":"doha-qatar","name":"Doha, Qatar","latlon":"25.294346,51.519367","url":"#/landing-point/doha-qatar"},{"landing_point_id":5962,"id":"fujairah-united-arab-emirates","name":"Fujairah, United Arab Emirates","latlon":"25.121690,56.333720","url":"#/landing-point/fujairah-united-arab-emirates"},{"landing_point_id":4361,"id":"jeddah-saudi-arabia","name":"Jeddah, Saudi Arabia","latlon":"21.481262,39.182751","url":"#/landing-point/jeddah-saudi-arabia"},{"landing_point_id":3259,"id":"karachi-pakistan","name":"Karachi, Pakistan","latlon":"24.889378,67.028539","url":"#/landing-point/karachi-pakistan"},{"landing_point_id":15018,"id":"kuala-kurau-malaysia","name":"Kuala Kurau, Malaysia","latlon":"5.019465,100.397078","url":"#/landing-point/kuala-kurau-malaysia"},{"landing_point_id":3210,"id":"marseille-france","name":"Marseille, France","latlon":"43.293165,5.372623","url":"#/landing-point/marseille-france"},{"landing_point_id":3212,"id":"mumbai-india","name":"Mumbai, India","latlon":"19.075794,72.875899","url":"#/landing-point/mumbai-india"},{"landing_point_id":14639,"id":"ngwe-saung-myanmar","name":"Ngwe Saung, Myanmar","latlon":"16.858034,94.391221","url":"#/landing-point/ngwe-saung-myanmar"},{"landing_point_id":5956,"id":"satun-thailand","name":"Satun, Thailand","latlon":"6.613214,100.066121","url":"#/landing-point/satun-thailand"},{"landing_point_id":9118,"id":"sihanoukville-cambodia","name":"Sihanoukville, Cambodia","latlon":"10.630009,103.506647","url":"#/landing-point/sihanoukville-cambodia"},{"landing_point_id":4265,"id":"songkhla-thailand","name":"Songkhla, Thailand","latlon":"7.078449,100.596980","url":"#/landing-point/songkhla-thailand"},{"landing_point_id":6013,"id":"vung-tau-vietnam","name":"Vung Tau, Vietnam","latlon":"10.341850,107.079203","url":"#/landing-point/vung-tau-vietnam"},{"landing_point_id":9486,"id":"zafarana-egypt","name":"Zafarana, Egypt","latlon":"29.116683,32.649844","url":"#/landing-point/zafarana-egypt"}],"length":"25,000 km","rfs":"June 2017","owners":"China Unicom,  Telecom Egypt,  Etisalat,  Omantel,  Djibouti Telecom,  OTEGLOBE,  Pakistan Telecommunications Company Ltd.,  PCCW,  Ooredoo,  Mobily,  Viettel Corporation,  TeleYemen,  Retelit,  Reliance Jio Infocom,  Global Transit,  Vietnam Telecom International,  Metfone,  Hyalroute","url":"http://www.aaeone.com","notes":null}
