{"id":"asia-pacific-gateway-apg","name":"Asia Pacific Gateway (APG)","cable_id":1617,"landing_points":[{"landing_point_id":5802,"id":"chongming-china","name":"Chongming, China","latlon":"31.619880,121.395212","url":"#/landing-point/chongming-china"},{"landing_point_id":5986,"id":"danang-vietnam","name":"Danang, Vietnam","latlon":"16.051564,108.214750","url":"#/landing-point/danang-vietnam"},{"landing_point_id":5903,"id":"kuantan-malaysia","name":"Kuantan, Malaysia","latlon":"3.815169,103.322565","url":"#/landing-point/kuantan-malaysia"},{"landing_point_id":5887,"id":"maruyama-japan","name":"Maruyama, Japan","latlon":"35.037517,139.816956","url":"#/landing-point/maruyama-japan"},{"landing_point_id":5804,"id":"nanhui-china","name":"Nanhui, China","latlon":"30.306306,121.191404","url":"#/landing-point/nanhui-china"},{"landing_point_id":4183,"id":"pusan-korea-rep-","name":"Pusan, Korea, Rep.","latlon":"35.170147,128.999310","url":"#/landing-point/pusan-korea-rep-"},{"landing_point_id":5883,"id":"shima-japan","name":"Shima, Japan","latlon":"34.336834,136.874380","url":"#/landing-point/shima-japan"},{"landing_point_id":4265,"id":"songkhla-thailand","name":"Songkhla, Thailand","latlon":"7.078449,100.596980","url":"#/landing-point/songkhla-thailand"},{"landing_point_id":9135,"id":"tanah-merah-singapore","name":"Tanah Merah, Singapore","latlon":"1.327255,103.946588","url":"#/landing-point/tanah-merah-singapore"},{"landing_point_id":5981,"id":"toucheng-taiwan","name":"Toucheng, Taiwan","latlon":"24.863596,121.801462","url":"#/landing-point/toucheng-taiwan"},{"landing_point_id":5857,"id":"tseung-kwan-o-hong-kong-china","name":"Tseung Kwan O, Hong Kong, China","latlon":"22.318297,114.258692","url":"#/landing-point/tseung-kwan-o-hong-kong-china"}],"length":"10,400 km","rfs":"November 2016","owners":"NTT,  China Telecom,  China Unicom,  Chunghwa Telecom,  KT,  Starhub,  LG Uplus,  China Mobile,  Viettel Corporation,  Vietnam Telecom International,  Global Transit,  Facebook","url":null,"notes":null}
