{"id":"atlantis-2","name":"Atlantis-2","cable_id":1045,"landing_points":[{"landing_point_id":5936,"id":"carcavelos-portugal","name":"Carcavelos, Portugal","latlon":"38.690165,-9.331557","url":"#/landing-point/carcavelos-portugal"},{"landing_point_id":4180,"id":"dakar-senegal","name":"Dakar, Senegal","latlon":"14.686599,-17.451914","url":"#/landing-point/dakar-senegal"},{"landing_point_id":5722,"id":"el-mdano-canary-islands-spain","name":"El Médano, Canary Islands, Spain","latlon":"28.046652,-16.538584","url":"#/landing-point/el-mdano-canary-islands-spain"},{"landing_point_id":3347,"id":"fortaleza-brazil","name":"Fortaleza, Brazil","latlon":"-3.718836,-38.542968","url":"#/landing-point/fortaleza-brazil"},{"landing_point_id":3330,"id":"las-toninas-argentina","name":"Las Toninas, Argentina","latlon":"-36.472532,-56.695487","url":"#/landing-point/las-toninas-argentina"},{"landing_point_id":4257,"id":"praia-cape-verde","name":"Praia, Cape Verde","latlon":"14.923013,-23.521247","url":"#/landing-point/praia-cape-verde"}],"length":"8,500 km","rfs":"February 2000","owners":"Embratel,  Deutsche Telekom,  Telecom Italia Sparkle,  Telecom Argentina,  Telefonica,  Portugal Telecom,  Orange,  Telefónica Larga Distancia de Puerto Rico,  AT&T,  Proximus,  KT,  SingTel,  Sprint,  Tata Communications,  Verizon,  BT,  Orange Polska","url":null,"notes":null}
