{"id":"cantat-3","name":"CANTAT-3","cable_id":1737,"landing_points":[{"landing_point_id":5818,"id":"blaabjerg-denmark","name":"Blaabjerg, Denmark","latlon":"55.751533,8.328970","url":"#/landing-point/blaabjerg-denmark"},{"landing_point_id":10780,"id":"south-arne","name":"South Arne","latlon":"56.078291,4.228386","url":"#/landing-point/south-arne"},{"landing_point_id":3142,"id":"sylt-germany","name":"Sylt, Germany","latlon":"54.898506,8.383364","url":"#/landing-point/sylt-germany"},{"landing_point_id":5724,"id":"tjornuvik-faeroe-islands","name":"Tjornuvik, Faeroe Islands","latlon":"62.289921,-7.147231","url":"#/landing-point/tjornuvik-faeroe-islands"},{"landing_point_id":10782,"id":"tyra","name":"Tyra","latlon":"55.715608,4.748503","url":"#/landing-point/tyra"},{"landing_point_id":10781,"id":"valdemar","name":"Valdemar","latlon":"55.804072,4.564323","url":"#/landing-point/valdemar"},{"landing_point_id":5858,"id":"vestmannaeyjar-iceland","name":"Vestmannaeyjar, Iceland","latlon":"63.437687,-20.267293","url":"#/landing-point/vestmannaeyjar-iceland"}],"length":"2,500 km","rfs":"November 1994","owners":"Faroese Telecom","url":"http://www.ft.fo","notes":null}
