{"id":"djibouti-africa-regional-express-dare","name":"Djibouti Africa Regional Express (DARE)","cable_id":1863,"landing_points":[{"landing_point_id":10093,"id":"berbera-somalia","name":"Berbera, Somalia","latlon":"10.435112,45.010874","url":"#/landing-point/berbera-somalia"},{"landing_point_id":16373,"id":"bosaso-somalia","name":"Bosaso, Somalia","latlon":"11.275566,49.187922","url":"#/landing-point/bosaso-somalia"},{"landing_point_id":4177,"id":"djibouti-city-djibouti","name":"Djibouti City, Djibouti","latlon":"11.594682,43.147984","url":"#/landing-point/djibouti-city-djibouti"},{"landing_point_id":4255,"id":"mogadishu-somalia","name":"Mogadishu, Somalia","latlon":"2.041195,45.344174","url":"#/landing-point/mogadishu-somalia"},{"landing_point_id":5896,"id":"mombasa-kenya","name":"Mombasa, Kenya","latlon":"-4.053211,39.672790","url":"#/landing-point/mombasa-kenya"}],"length":"5,400 km","rfs":"May 2018","owners":"Djibouti Telecom,  Africa Marine Express,  TeleYemen,  Telesom,  Hormuud Telecom Somalia,  Golis Telecommunications,  Somtel International","url":null,"notes":null}
