{"id":"ellalink","name":"EllaLink","cable_id":1725,"landing_points":[{"landing_point_id":3347,"id":"fortaleza-brazil","name":"Fortaleza, Brazil","latlon":"-3.718836,-38.542968","url":"#/landing-point/fortaleza-brazil"},{"landing_point_id":5935,"id":"funchal-portugal","name":"Funchal, Portugal","latlon":"32.646869,-16.908945","url":"#/landing-point/funchal-portugal"},{"landing_point_id":4257,"id":"praia-cape-verde","name":"Praia, Cape Verde","latlon":"14.923013,-23.521247","url":"#/landing-point/praia-cape-verde"},{"landing_point_id":3411,"id":"santos-brazil","name":"Santos, Brazil","latlon":"-23.961844,-46.328072","url":"#/landing-point/santos-brazil"},{"landing_point_id":9754,"id":"sines-portugal","name":"Sines, Portugal","latlon":"37.957218,-8.869594","url":"#/landing-point/sines-portugal"}],"length":"10,119 km","rfs":"Q4 2019","owners":"Telebras,  IslaLink","url":"http://www.islalink.es","notes":null}
