{"id":"europe-india-gateway-eig","name":"Europe India Gateway (EIG)","cable_id":1580,"landing_points":[{"landing_point_id":9485,"id":"abu-talat-egypt","name":"Abu Talat, Egypt","latlon":"31.071845,29.702482","url":"#/landing-point/abu-talat-egypt"},{"landing_point_id":8947,"id":"barka-oman","name":"Barka, Oman","latlon":"23.679429,58.004324","url":"#/landing-point/barka-oman"},{"landing_point_id":4554,"id":"bude-united-kingdom","name":"Bude, United Kingdom","latlon":"50.828110,-4.544401","url":"#/landing-point/bude-united-kingdom"},{"landing_point_id":4177,"id":"djibouti-city-djibouti","name":"Djibouti City, Djibouti","latlon":"11.594682,43.147984","url":"#/landing-point/djibouti-city-djibouti"},{"landing_point_id":5962,"id":"fujairah-united-arab-emirates","name":"Fujairah, United Arab Emirates","latlon":"25.121690,56.333720","url":"#/landing-point/fujairah-united-arab-emirates"},{"landing_point_id":8948,"id":"gibraltar-gibraltar","name":"Gibraltar, Gibraltar","latlon":"36.155937,-5.347672","url":"#/landing-point/gibraltar-gibraltar"},{"landing_point_id":4361,"id":"jeddah-saudi-arabia","name":"Jeddah, Saudi Arabia","latlon":"21.481262,39.182751","url":"#/landing-point/jeddah-saudi-arabia"},{"landing_point_id":3255,"id":"monaco-monaco","name":"Monaco, Monaco","latlon":"43.732618,7.417642","url":"#/landing-point/monaco-monaco"},{"landing_point_id":3212,"id":"mumbai-india","name":"Mumbai, India","latlon":"19.075794,72.875899","url":"#/landing-point/mumbai-india"},{"landing_point_id":5934,"id":"sesimbra-portugal","name":"Sesimbra, Portugal","latlon":"38.442691,-9.102748","url":"#/landing-point/sesimbra-portugal"},{"landing_point_id":4271,"id":"tripoli-libya","name":"Tripoli, Libya","latlon":"32.877301,13.187268","url":"#/landing-point/tripoli-libya"},{"landing_point_id":9486,"id":"zafarana-egypt","name":"Zafarana, Egypt","latlon":"29.116683,32.649844","url":"#/landing-point/zafarana-egypt"}],"length":"15,000 km","rfs":"February 2011","owners":"AT&T,  Airtel (Bharti),  Bharat Sanchar Nigam Ltd. (BSNL),  BT,  Djibouti Telecom,  du,  Gibtelecom,  Libya International Telecommunications Company,  MTN Group,  Omantel,  Portugal Telecom,  Saudi Telecom,  Telecom Egypt,  Telkom South Africa,  Verizon,  Vodafone","url":"https://www.europeindiagateway.com","notes":null}
