{"id":"global-caribbean-network-gcn","name":"Global Caribbean Network (GCN)","cable_id":1829,"landing_points":[{"landing_point_id":8834,"id":"baillif-guadeloupe","name":"Baillif, Guadeloupe","latlon":"16.028945,-61.713941","url":"#/landing-point/baillif-guadeloupe"},{"landing_point_id":8836,"id":"jarry-guadeloupe","name":"Jarry, Guadeloupe","latlon":"16.243007,-61.554859","url":"#/landing-point/jarry-guadeloupe"},{"landing_point_id":7876,"id":"saint-barthelemy-guadeloupe","name":"Saint Barthelemy, Guadeloupe","latlon":"17.900062,-62.833374","url":"#/landing-point/saint-barthelemy-guadeloupe"},{"landing_point_id":7875,"id":"saint-martin-guadeloupe","name":"Saint Martin, Guadeloupe","latlon":"18.092787,-63.050073","url":"#/landing-point/saint-martin-guadeloupe"},{"landing_point_id":4262,"id":"san-juan-puerto-rico-united-states","name":"San Juan, Puerto Rico, United States","latlon":"18.465833,-66.106664","url":"#/landing-point/san-juan-puerto-rico-united-states"},{"landing_point_id":5750,"id":"st-croix-virgin-islands-united-states","name":"St. Croix, Virgin Islands, United States","latlon":"17.771864,-64.819408","url":"#/landing-point/st-croix-virgin-islands-united-states"}],"length":"n.a.","rfs":"September 2006","owners":"Leucadia National Corporation,  Loret Group","url":"http://www.globalcaribbean.net","notes":null}
