{"id":"jaka2ladema","name":"JaKa2LaDeMa","cable_id":1767,"landing_points":[{"landing_point_id":9597,"id":"bali-indonesia","name":"Bali, Indonesia","latlon":"-8.464415,115.596973","url":"#/landing-point/bali-indonesia"},{"landing_point_id":7803,"id":"banjarmasin-indonesia","name":"Banjarmasin, Indonesia","latlon":"-3.327967,114.604005","url":"#/landing-point/banjarmasin-indonesia"},{"landing_point_id":14611,"id":"beculuk-indonesia","name":"Beculuk, Indonesia","latlon":"-8.615636,114.097071","url":"#/landing-point/beculuk-indonesia"},{"landing_point_id":14612,"id":"jimbaran-indonesia","name":"Jimbaran, Indonesia","latlon":"-8.784093,115.159864","url":"#/landing-point/jimbaran-indonesia"},{"landing_point_id":14607,"id":"ketapang-indonesia","name":"Ketapang, Indonesia","latlon":"-1.859120,109.971878","url":"#/landing-point/ketapang-indonesia"},{"landing_point_id":14613,"id":"mataram-indonesia","name":"Mataram, Indonesia","latlon":"-8.586388,116.081543","url":"#/landing-point/mataram-indonesia"},{"landing_point_id":14608,"id":"pankalan-indonesia","name":"Pankalan, Indonesia","latlon":"-2.849672,111.752932","url":"#/landing-point/pankalan-indonesia"},{"landing_point_id":8360,"id":"pontianak-indonesia","name":"Pontianak, Indonesia","latlon":"-0.027407,109.335648","url":"#/landing-point/pontianak-indonesia"},{"landing_point_id":14609,"id":"sangata-indonesia","name":"Sangata, Indonesia","latlon":"0.326889,117.550976","url":"#/landing-point/sangata-indonesia"},{"landing_point_id":14610,"id":"toweli-indonesia","name":"Toweli, Indonesia","latlon":"-1.142470,119.388377","url":"#/landing-point/toweli-indonesia"}],"length":"1,700 km","rfs":"2010","owners":"Telkom Indonesia","url":null,"notes":null}
