{"id":"shefa-2","name":"SHEFA-2","cable_id":1576,"landing_points":[{"landing_point_id":8682,"id":"ayre-of-cara-united-kingdom","name":"Ayre of Cara, United Kingdom","latlon":"58.833270,-2.900114","url":"#/landing-point/ayre-of-cara-united-kingdom"},{"landing_point_id":16809,"id":"bp-clair-ridge-united-kingdom","name":"BP Clair Ridge, United Kingdom","latlon":"60.441045,-2.294927","url":"#/landing-point/bp-clair-ridge-united-kingdom"},{"landing_point_id":8680,"id":"banff-united-kingdom","name":"Banff, United Kingdom","latlon":"57.666864,-2.523650","url":"#/landing-point/banff-united-kingdom"},{"landing_point_id":10353,"id":"glen-lyon-united-kingdom","name":"Glen Lyon, United Kingdom","latlon":"60.333074,-4.333414","url":"#/landing-point/glen-lyon-united-kingdom"},{"landing_point_id":8684,"id":"maywick-united-kingdom","name":"Maywick, United Kingdom","latlon":"60.003985,-1.323797","url":"#/landing-point/maywick-united-kingdom"},{"landing_point_id":8683,"id":"sandwick-united-kingdom","name":"Sandwick, United Kingdom","latlon":"59.995977,-1.238689","url":"#/landing-point/sandwick-united-kingdom"},{"landing_point_id":8681,"id":"torshavn-faeroe-islands","name":"Torshavn, Faeroe Islands","latlon":"62.017461,-6.771841","url":"#/landing-point/torshavn-faeroe-islands"}],"length":"1,000 km","rfs":"March 2008","owners":"Faroese Telecom","url":"http://www.shefa.fo","notes":null}
