{"id":"smpcs-packet-2","name":"SMPCS Packet-2","cable_id":1885,"landing_points":[{"landing_point_id":16629,"id":"biak-indonesia","name":"Biak, Indonesia","latlon":"-1.163466,136.053286","url":"#/landing-point/biak-indonesia"},{"landing_point_id":16574,"id":"fakfak-indonesia","name":"Fakfak, Indonesia","latlon":"-3.097767,133.019425","url":"#/landing-point/fakfak-indonesia"},{"landing_point_id":16627,"id":"jayapura-indonesia","name":"Jayapura, Indonesia","latlon":"-2.591566,140.669104","url":"#/landing-point/jayapura-indonesia"},{"landing_point_id":16633,"id":"kaimana-indonesia","name":"Kaimana, Indonesia","latlon":"-3.679359,133.791495","url":"#/landing-point/kaimana-indonesia"},{"landing_point_id":16630,"id":"manokwari-indonesia","name":"Manokwari, Indonesia","latlon":"-0.861465,134.062003","url":"#/landing-point/manokwari-indonesia"},{"landing_point_id":16576,"id":"merauke-indonesia","name":"Merauke, Indonesia","latlon":"-8.499083,140.405042","url":"#/landing-point/merauke-indonesia"},{"landing_point_id":16628,"id":"sarmi-indonesia","name":"Sarmi, Indonesia","latlon":"-2.175233,139.353285","url":"#/landing-point/sarmi-indonesia"},{"landing_point_id":16573,"id":"sorong-indonesia","name":"Sorong, Indonesia","latlon":"-0.882070,131.295403","url":"#/landing-point/sorong-indonesia"},{"landing_point_id":16575,"id":"timika-indonesia","name":"Timika, Indonesia","latlon":"-4.550257,136.889614","url":"#/landing-point/timika-indonesia"},{"landing_point_id":16632,"id":"tual-indonesia","name":"Tual, Indonesia","latlon":"-5.626550,132.752043","url":"#/landing-point/tual-indonesia"},{"landing_point_id":16631,"id":"waisai-indonesia","name":"Waisai, Indonesia","latlon":"-0.383364,130.857610","url":"#/landing-point/waisai-indonesia"}],"length":"3,498 km","rfs":"2015","owners":"Telkom Indonesia","url":null,"notes":null}
