{"id":"tata-tgn-pacific","name":"Tata TGN-Pacific","cable_id":1155,"landing_points":[{"landing_point_id":5894,"id":"emi-japan","name":"Emi, Japan","latlon":"35.062383,140.061097","url":"#/landing-point/emi-japan"},{"landing_point_id":3649,"id":"hillsboro-oregon-united-states","name":"Hillsboro, Oregon, United States","latlon":"45.522901,-122.989797","url":"#/landing-point/hillsboro-oregon-united-states"},{"landing_point_id":3678,"id":"los-angeles-california-united-states","name":"Los Angeles, California, United States","latlon":"34.053399,-118.245347","url":"#/landing-point/los-angeles-california-united-states"},{"landing_point_id":5973,"id":"piti-guam","name":"Piti, Guam","latlon":"13.464688,144.694688","url":"#/landing-point/piti-guam"},{"landing_point_id":5893,"id":"toyohashi-japan","name":"Toyohashi, Japan","latlon":"34.769060,137.391567","url":"#/landing-point/toyohashi-japan"}],"length":"22,300 km","rfs":"December 2002","owners":"Tata Communications","url":"http://www.tatacommunications.com","notes":null}
