{"id":"terra-sw","name":"TERRA SW","cable_id":1693,"landing_points":[{"landing_point_id":15031,"id":"fish-camp-alaska-united-states","name":"Fish Camp, Alaska, United States","latlon":"59.949200,-154.858855","url":"#/landing-point/fish-camp-alaska-united-states"},{"landing_point_id":8392,"id":"homer-alaska-united-states","name":"Homer, Alaska, United States","latlon":"59.646368,-151.544306","url":"#/landing-point/homer-alaska-united-states"},{"landing_point_id":15033,"id":"igiugig-alaska-united-states","name":"Igiugig, Alaska, United States","latlon":"59.327801,-155.894743","url":"#/landing-point/igiugig-alaska-united-states"},{"landing_point_id":15027,"id":"illiamna-alaska-united-states","name":"Illiamna, Alaska, United States","latlon":"59.754766,-154.906121","url":"#/landing-point/illiamna-alaska-united-states"},{"landing_point_id":15028,"id":"kokhanok-alaska-united-states","name":"Kokhanok, Alaska, United States","latlon":"59.442157,-154.752752","url":"#/landing-point/kokhanok-alaska-united-states"},{"landing_point_id":15029,"id":"newhalen-alaska-united-states","name":"Newhalen, Alaska, United States","latlon":"59.718145,-154.899773","url":"#/landing-point/newhalen-alaska-united-states"},{"landing_point_id":15030,"id":"nondalton-alaska-united-states","name":"Nondalton, Alaska, United States","latlon":"59.972649,-154.847722","url":"#/landing-point/nondalton-alaska-united-states"},{"landing_point_id":15025,"id":"pedro-bay-alaska-united-states","name":"Pedro Bay, Alaska, United States","latlon":"59.787213,-154.106121","url":"#/landing-point/pedro-bay-alaska-united-states"},{"landing_point_id":15026,"id":"pile-bay-alaska-united-states","name":"Pile Bay, Alaska, United States","latlon":"59.776055,-153.880487","url":"#/landing-point/pile-bay-alaska-united-states"},{"landing_point_id":15032,"id":"port-alwsorth-alaska-united-states","name":"Port Alwsorth, Alaska, United States","latlon":"60.200372,-154.336932","url":"#/landing-point/port-alwsorth-alaska-united-states"},{"landing_point_id":15024,"id":"williamsport-alaska-united-states","name":"Williamsport, Alaska, United States","latlon":"59.682403,-153.632147","url":"#/landing-point/williamsport-alaska-united-states"}],"length":"n.a.","rfs":"2012","owners":"GCI","url":"http://www.alaskaunited.com","notes":null}
