{"id":"tui-samoa","name":"Tui-Samoa","cable_id":1855,"landing_points":[{"landing_point_id":5705,"id":"apia-samoa","name":"Apia, Samoa","latlon":"-13.833675,-171.766684","url":"#/landing-point/apia-samoa"},{"landing_point_id":17016,"id":"leava-wallis-and-futuna","name":"Leava, Wallis and Futuna","latlon":"-14.296834,-178.158108","url":"#/landing-point/leava-wallis-and-futuna"},{"landing_point_id":16955,"id":"mata-utu-wallis-and-futuna","name":"Mata-Utu, Wallis and Futuna","latlon":"-13.281991,-176.175000","url":"#/landing-point/mata-utu-wallis-and-futuna"},{"landing_point_id":17015,"id":"savusavu-fiji","name":"Savusavu, Fiji","latlon":"-16.808015,179.349750","url":"#/landing-point/savusavu-fiji"},{"landing_point_id":4268,"id":"suva-fiji","name":"Suva, Fiji","latlon":"-18.123810,178.437446","url":"#/landing-point/suva-fiji"},{"landing_point_id":16520,"id":"tuasivi-samoa","name":"Tuasivi, Samoa","latlon":"-13.670589,-172.178161","url":"#/landing-point/tuasivi-samoa"}],"length":"1,693 km","rfs":"February 2018","owners":"Samoa Submarine Cable Company","url":"http://ssccsamoa.com/","notes":null}
